{"type":"FeatureCollection","crs":{"type":"name","properties":{"name":"EPSG:4326"}},"features":[{"type":"Feature","id":1,"geometry":{"type":"Point","coordinates":[-79.112454537,43.0700032080001]},"properties":{"OBJECTID":1,"NF_ID":"FST002","NAME":"FIRE STATION 2","ADDRESS":"7036 McLeod Rd","cp_ID":53,"pID":23897}},{"type":"Feature","id":2,"geometry":{"type":"Point","coordinates":[-79.053994608,43.0517739900001]},"properties":{"OBJECTID":2,"NF_ID":"FST004","NAME":"FIRE STATION 4","ADDRESS":"8698 Banting Av","cp_ID":222,"pID":3395}},{"type":"Feature","id":3,"geometry":{"type":"Point","coordinates":[-79.057044511,43.015974011]},"properties":{"OBJECTID":3,"NF_ID":"FST005","NAME":"FIRE STATION 5","ADDRESS":"11208 Sodom Rd","cp_ID":449,"pID":5527}},{"type":"Feature","id":4,"geometry":{"type":"Point","coordinates":[-79.131181571,43.0039639820001]},"properties":{"OBJECTID":4,"NF_ID":"FST006","NAME":"FIRE STATION 6","ADDRESS":"8061 Schisler Rd","cp_ID":156,"pID":29109}},{"type":"Feature","id":5,"geometry":{"type":"Point","coordinates":[-79.0920839089999,43.104770053]},"properties":{"OBJECTID":5,"NF_ID":"FST001","NAME":"FIRE STATION 1","ADDRESS":"5815 Morrison St","cp_ID":285,"pID":3382}},{"type":"Feature","id":6,"geometry":{"type":"Point","coordinates":[-79.1126429989999,43.1233523700001]},"properties":{"OBJECTID":6,"NF_ID":"FST003","NAME":"FIRE STATION 3","ADDRESS":"3401 Dorchester Rd","cp_ID":117,"pID":353410}},{"type":"Feature","id":7,"geometry":{"type":"Point","coordinates":[-79.091554349,43.1045695350001]},"properties":{"OBJECTID":7,"NF_ID":"FST000","NAME":"FIRE ADMIN BUILDING","ADDRESS":"5809 Morrison St","cp_ID":230,"pID":3381}},{"type":"Feature","id":8,"geometry":{"type":"Point","coordinates":[-79.141362968,43.0879956900001]},"properties":{"OBJECTID":8,"NF_ID":"FST007","NAME":"FIRE STATION 7","ADDRESS":"8530 Lundy's Ln","cp_ID":222,"pID":6467}}]}